City_ID,City,Lat,Lng,Max Temp,Humidity,Cloudiness,Wind Speed,Country,Date
0,invercargill,-46.4,168.35,35.02,91,91,11.01,NZ,1726506749
1,flying fish cove,-10.4217,105.6791,76.68,83,100,8.05,CX,1726506750
2,niafunke,15.9322,-3.9906,90.54,47,69,11.45,ML,1726506751
3,west island,-12.1568,96.8225,78.78,73,73,19.57,CC,1726506752
4,ayaviri,-14.8864,-70.5889,64.26,23,38,6.8,PE,1726506753
5,lihue,21.9789,-159.3672,78.39,85,40,16.11,US,1726506756
6,tazovsky,67.4667,78.7,47.59,95,100,10.04,RU,1726506757
7,butte,39.6499,-121.5677,64.18,55,20,8.05,US,1726506758
8,hithadhoo,-0.6,73.0833,84.36,74,100,10.18,MV,1726506759
9,ushuaia,-54.8,-68.3,44.06,86,84,11.01,AR,1726506659
10,ndjole,-0.1783,10.7649,78.55,89,81,4.23,GA,1726506761
11,conduaga,8.862,117.4893,79.25,90,100,8.14,PH,1726506762
12,tiksi,71.6872,128.8694,34.39,91,100,17.2,RU,1726506763
13,malakal,9.5334,31.6605,75.25,93,100,4.79,SS,1726506764
14,minas de marcona,-15.2119,-75.1103,66.51,48,5,8.68,PE,1726506671
15,iqaluit,63.7506,-68.5145,36.7,86,100,15.01,CA,1726506766
16,laojunmiao,39.8333,97.7333,58.15,71,42,7.29,CN,1726506767
17,puerto natales,-51.7236,-72.4875,57.65,51,75,29.93,CL,1726506534
18,maragogi,-9.0122,-35.2225,80.35,61,27,9.69,BR,1726506769
19,uturoa,-16.7333,-151.4333,77.65,80,76,10.56,PF,1726506770
20,port-aux-francais,-49.35,70.2167,39.76,94,100,34.72,TF,1726506771
21,cannonvale,-20.2833,148.7,70.99,74,92,20.2,AU,1726506772
22,yigo village,13.5361,144.8886,79.09,93,20,14.97,GU,1726506773
23,antonio enes,-16.2325,39.9086,77.02,79,0,14.54,MZ,1726506774
24,stanley,54.868,-1.6985,60.53,69,0,4.61,GB,1726506775
25,albany,42.6001,-73.9662,80.82,55,0,1.01,US,1726506776
26,isangel,-19.55,169.2667,68.79,68,30,14.38,VU,1726506778
27,waitangi,-43.9535,-176.5597,50.83,95,100,8.01,NZ,1726506780
28,nar'yan-mar,67.6713,53.087,61.52,70,100,8.57,RU,1726506781
29,takamatsu,34.3403,134.0433,81.48,88,3,1.41,JP,1726506588
30,edinburgh of the seven seas,-37.0676,-12.3116,55.62,86,74,28.32,SH,1726506783
31,siwa oasis,29.2041,25.5195,88.75,25,0,11.12,EG,1726506784
32,yellowknife,62.456,-114.3525,51.42,99,100,8.01,CA,1726506785
33,tura,25.5198,90.2201,76.32,90,100,3.36,IN,1726506786
34,tual,-5.6667,132.75,80.04,85,87,13.76,ID,1726506787
35,mianyang,31.4593,104.7542,77.58,74,0,4.16,CN,1726506788
36,tsiombe,-25.3,45.4833,71.46,77,10,6.62,MG,1726506789
37,avarua,-21.2078,-159.775,71.65,88,20,8.05,CK,1726506790
38,antofagasta,-23.65,-70.4,63.68,70,62,7.07,CL,1726506735
39,grytviken,-54.2811,-36.5092,34.7,92,96,14.45,GS,1726506792
40,blackmans bay,-43.0167,147.3167,48.33,80,100,1.01,AU,1726506793
41,mata-utu,-13.2816,-176.1745,79.81,80,86,9.1,WF,1726506794
42,thompson,55.7435,-97.8558,64.56,63,40,3.44,CA,1726506795
43,mugia,43.1041,-9.2179,68.92,62,11,21.79,ES,1726506796
44,tabuk,17.4189,121.4443,74.08,96,100,4.68,PH,1726506797
45,puerto ayora,-0.7393,-90.3518,71.55,93,91,4.0,EC,1726506798
46,kodiak,57.79,-152.4072,47.71,81,20,3.44,US,1726506501
47,udachny,66.4167,112.4,38.73,85,100,14.63,RU,1726506800
48,bilibino,68.0546,166.4372,29.46,98,98,3.29,RU,1726506801
49,kapa'a,22.0752,-159.319,79.12,84,40,16.11,US,1726506802
50,qarayeri,40.7886,46.3066,70.68,43,40,4.61,AZ,1726506803
51,hammerfest,70.6634,23.6821,55.85,58,0,4.61,NO,1726506804
52,at taraf,25.3628,49.725,97.34,43,0,9.86,SA,1726506806
53,college,64.8569,-147.8028,40.95,92,75,0.0,US,1726506807
54,hasaki,35.7333,140.8333,75.07,88,74,11.97,JP,1726506808
55,adamstown,-25.066,-130.1015,67.82,88,100,20.33,PN,1726506809
56,nordenham,53.5,8.4833,63.99,82,11,11.88,DE,1726506811
57,port alfred,-33.5906,26.891,62.19,81,15,1.01,ZA,1726506812
58,al jawf,29.5,38.75,82.89,29,0,10.22,SA,1726506813
59,kourou,5.1552,-52.6478,89.1,57,3,12.48,GF,1726506693
60,punta arenas,-53.15,-70.9167,50.11,57,0,26.46,CL,1726506815
61,mount gambier,-37.8333,140.7667,49.55,64,99,7.52,AU,1726506816
62,trinidad,-14.8333,-64.9,84.18,42,40,13.8,BO,1726506817
63,medicine hat,50.0501,-110.6683,62.22,70,3,1.01,CA,1726506692
64,mwene-ditu,-7.0,23.45,83.89,22,9,5.01,CD,1726506679
65,robertsport,6.7533,-11.3686,79.57,82,78,10.2,LR,1726506820
66,margaret river,-33.95,115.0667,51.96,82,0,6.44,AU,1726506821
67,olonkinbyen,70.9221,-8.7187,34.38,83,100,15.84,SJ,1726506822
68,pisco,-13.7,-76.2167,64.02,82,100,8.05,PE,1726506823
69,vegreville,53.5001,-112.0518,59.54,66,37,4.61,CA,1726506825
70,baotou,40.6522,109.8222,62.31,75,94,2.3,CN,1726506825
71,la'ie,21.6477,-157.9253,79.99,89,87,4.0,US,1726506827
72,marstons mills,41.6562,-70.4161,73.85,69,0,5.75,US,1726506828
73,san pedro del parana,-26.8333,-56.2,79.84,30,0,7.94,PY,1726506829
74,loharu,28.45,75.8167,84.97,44,31,3.24,IN,1726506830
75,cortina d'ampezzo,46.5384,12.1377,46.96,92,100,8.23,IT,1726506831
76,essaouira,31.5125,-9.77,67.73,86,26,6.29,MA,1726506832
77,caleta de carquin,-11.0925,-77.6267,67.51,69,22,11.34,PE,1726506833
78,banda aceh,5.5577,95.3222,80.55,74,100,17.27,ID,1726506603
79,bredasdorp,-34.5322,20.0403,50.61,77,0,5.28,ZA,1726506836
80,mahina,-17.5065,-149.489,78.57,83,75,3.44,PF,1726506837
81,papatowai,-46.5619,169.4708,37.11,76,52,13.65,NZ,1726506838
82,fisterra,42.9049,-9.2629,72.66,54,13,17.4,ES,1726506839
83,ust-nera,64.5667,143.2,35.46,81,79,6.6,RU,1726506840
84,nayudupet,13.9,79.9,88.41,37,57,5.08,IN,1726506842
85,nova sintra,14.8667,-24.7167,79.36,76,62,12.75,CV,1726506843
86,calipatria,33.1256,-115.5142,81.84,41,0,11.25,US,1726506844
87,puerto aysen,-45.4,-72.7,42.69,100,100,4.38,CL,1726506846
88,ghat,24.9647,10.1728,97.38,19,60,7.78,LY,1726506847
89,cabo san lucas,22.8909,-109.9124,85.75,65,0,9.22,MX,1726506848
90,charters towers,-20.1,146.2667,61.16,84,98,9.89,AU,1726506849
91,aasiaat,68.7098,-52.8699,32.11,86,87,4.59,GL,1726506850
92,amungan,15.3652,119.9582,78.13,82,100,5.03,PH,1726506851
93,dudinka,69.4058,86.1778,38.95,94,58,7.81,RU,1726506852
94,homer,59.6425,-151.5483,51.8,72,75,18.41,US,1726506853
95,afaahiti,-17.75,-149.2833,75.33,87,90,14.36,PF,1726506854
96,vorgashor,67.5833,63.95,55.2,92,91,2.33,RU,1726506855
97,lata,40.1629,-8.3327,89.49,11,19,10.02,PT,1726506856
98,bethel,41.3712,-73.414,77.45,45,0,4.61,US,1726506858
99,port mathurin,-19.6833,63.4167,70.48,74,11,26.11,MU,1726506859
100,papao,-17.75,-149.55,78.48,84,85,13.78,PF,1726506860
101,chonchi,-42.6128,-73.8092,53.76,59,99,0.94,CL,1726506861
102,vila velha,-20.3297,-40.2925,85.95,65,20,19.57,BR,1726506751
103,ivdel',60.6911,60.4206,55.76,95,11,3.18,RU,1726506863
104,irymple,-34.25,142.1667,40.08,74,0,8.41,AU,1726506864
105,juegang,32.3174,121.1855,80.28,94,79,17.09,CN,1726506865
106,buritis,-15.6178,-46.4233,99.88,15,6,0.85,BR,1726506866
107,ilulissat,69.2167,-51.1,37.42,75,75,0.0,GL,1726506867
108,jiuquan,39.7432,98.5174,64.89,59,78,2.21,CN,1726506870
109,mpanda,-6.3655,31.0409,79.54,21,18,2.59,TZ,1726506871
110,luderitz,-26.6481,15.1594,56.79,81,0,29.21,,1726506872
111,acarau,-2.8856,-40.12,87.22,52,0,22.5,BR,1726506873
112,gadzhiyevo,69.2551,33.3362,51.66,91,98,11.03,RU,1726506874
113,shubarshi,48.5872,57.1869,63.91,44,75,17.56,KZ,1726506875
114,talcahuano,-36.7167,-73.1167,62.28,39,0,10.36,CL,1726506770
115,port elizabeth,-33.918,25.5701,60.31,80,0,5.75,ZA,1726506877
116,port lincoln,-34.7333,135.8667,50.77,80,2,8.84,AU,1726506878
117,coquimbo,-29.9533,-71.3436,60.53,77,75,17.27,CL,1726506592
118,tianpeng,30.9866,103.9393,76.24,76,4,2.39,CN,1726506880
119,wailua homesteads,22.0669,-159.378,77.79,87,40,16.11,US,1726506881
120,lianzhou,24.7811,112.3825,76.12,96,89,3.51,CN,1726506829
121,verkhniye kigi,55.4083,58.6044,47.12,68,2,5.12,RU,1726506883
122,altamira,-3.2033,-52.2064,95.09,52,40,6.91,BR,1726506884
123,esmeraldas,-19.7625,-44.3139,90.88,21,0,5.84,BR,1726506885
124,nadym,65.5333,72.5167,57.0,90,82,8.79,RU,1726506629
125,palembang,-2.9167,104.7458,80.69,83,75,0.0,ID,1726506887
126,lospalos,-8.5186,127.0025,69.75,97,79,2.71,TL,1726506888
127,golden valley,45.0097,-93.3491,86.14,61,0,9.22,US,1726506889
128,hamilton,39.1834,-84.5333,86.77,44,0,9.22,US,1726506737
129,suomussalmi,64.8869,28.9078,47.34,72,38,4.68,FI,1726506678
130,dalton,34.7698,-84.9702,84.18,53,20,3.0,US,1726506892
131,hawaiian paradise park,19.5933,-154.9731,77.88,95,100,9.22,US,1726506894
132,ancud,-41.8697,-73.8203,51.35,63,98,0.89,CL,1726506672
133,skagen,57.7209,10.5839,59.54,88,7,1.72,DK,1726506897
134,hilo,19.7297,-155.09,78.1,99,100,9.22,US,1726506898
135,yung shue wan,22.2333,114.1167,85.75,79,100,10.25,HK,1726506899
136,dabakala,8.3667,-4.4333,81.88,80,62,3.56,CI,1726506900
137,atafu village,-8.5421,-172.5159,80.89,79,94,7.61,TK,1726506901
138,itoman,26.1247,127.6694,84.22,79,20,16.11,JP,1726506902
139,kiunga,-6.1219,141.2906,74.34,95,99,3.56,PG,1726506903
140,mukalla,14.5425,49.1242,80.35,83,39,6.22,YE,1726506904
141,isafjordur,66.0755,-23.124,46.44,53,100,2.3,IS,1726506905
142,gokak,16.1667,74.8333,71.51,88,100,12.77,IN,1726506906
143,constantia,44.1833,28.65,61.7,59,4,11.92,RO,1726506907
144,noumea,-22.2763,166.4572,67.95,55,61,13.51,NC,1726506908
145,tulum,20.2167,-87.4667,86.52,78,79,5.48,MX,1726506909
146,auki,-8.7676,160.7034,75.88,91,72,2.39,SB,1726506911
147,kununurra,-15.7667,128.7333,71.58,83,100,0.0,AU,1726506912
148,dunedin,-45.8742,170.5036,36.81,80,89,3.0,NZ,1726506913
149,melekeok village,7.4957,134.6367,84.76,79,100,10.36,PW,1726506914
150,kuta,-8.7233,115.1723,76.95,94,20,4.61,ID,1726506916
151,santa ana de yacuma,-13.75,-65.4333,82.35,42,40,14.97,BO,1726506917
152,baharly,38.4362,57.4316,71.01,22,0,5.1,TM,1726506918
153,vilyuchinsk,52.9306,158.4028,35.87,79,10,10.78,RU,1726506919
154,al'met'yevsk,54.9044,52.3154,60.17,79,2,4.29,RU,1726506921
155,iskateley,67.6803,53.1512,61.48,70,100,8.55,RU,1726506923
156,port moresby,-9.4431,147.1797,76.42,88,75,11.5,PG,1726506924
157,keflavik,64.0049,-22.5624,46.83,93,100,27.63,IS,1726506925
158,nahiyat al fuhud,30.9697,46.7228,98.78,16,0,7.18,IQ,1726506927
159,griffith,41.5284,-87.4237,87.94,36,0,4.61,US,1726506928
160,noosa heads,-26.3833,153.15,60.21,81,56,7.63,AU,1726506929
161,utrik,11.2278,169.8474,82.71,76,62,11.79,MH,1726506930
162,illela,13.7292,5.2975,92.26,48,67,8.57,NG,1726506931
163,igrim,63.1906,64.4162,58.35,87,32,5.73,RU,1726506932
164,nadi,-17.8,177.4167,73.4,88,40,0.0,FJ,1726506933
165,colonia,50.9333,6.95,68.95,67,63,8.46,DE,1726506916
166,jamestown,42.097,-79.2353,79.02,46,20,10.36,US,1726506935
167,qaqortoq,60.7167,-46.0333,40.96,82,99,5.82,GL,1726506936
168,champerico,14.3,-91.9167,86.65,74,82,8.93,GT,1726506937
169,lompoc,34.6391,-120.4579,64.53,71,75,11.5,US,1726506938
170,kerikeri,-35.2268,173.9474,48.78,75,56,7.78,NZ,1726506659
171,siem reap,13.5,104.0,76.35,96,100,5.53,KH,1726506940
172,egilsstadir,65.2653,-14.3948,48.11,66,75,4.61,IS,1726506941
173,sandnessjoen,66.0217,12.6316,55.51,82,75,12.66,NO,1726506942
174,kapit,2.0167,112.9333,75.58,85,96,1.45,MY,1726506944
175,longyearbyen,78.2186,15.6401,48.04,71,75,20.71,SJ,1726506945
176,mar del plata,-38.0023,-57.5575,65.03,37,4,8.7,AR,1726506753
177,nizhnesortymskiy,62.4397,71.7603,49.64,68,11,11.03,RU,1726506947
178,acapulco de juarez,16.8634,-99.8901,89.42,70,100,2.3,MX,1726506949
179,roma,43.2128,-75.4557,82.69,58,0,1.01,US,1726506686
180,saipan,15.1355,145.701,84.9,79,75,14.97,MP,1726506951
181,saudarkrokur,65.7461,-19.6394,44.82,63,97,6.87,IS,1726506952
182,la sarre,48.8002,-79.1996,78.82,53,50,12.77,CA,1726506953
183,kadugli,11.0167,29.7167,77.92,79,83,3.96,SD,1726506954
184,bikenibeu village,1.3673,173.1241,82.36,78,20,5.75,KI,1726506955
185,aldan,58.6031,125.3894,32.05,98,99,5.5,RU,1726506956
186,tukrah,32.5341,20.5791,77.41,53,0,8.84,LY,1726506957
187,kargat,55.1956,80.2811,41.94,69,99,5.08,RU,1726506958
188,callao,-12.0667,-77.15,68.72,82,100,4.61,PE,1726506959
189,codrington,-38.2667,141.9667,43.5,87,94,8.48,AU,1726506960
190,carnarvon,-24.8667,113.6333,71.15,35,0,13.09,AU,1726506961
191,vrnjacka banja,43.6167,20.9,51.62,89,88,3.09,RS,1726506962
192,puerto deseado,-47.7503,-65.8938,57.34,41,0,20.89,AR,1726506963
193,mutuali,-14.8706,37.0044,80.82,22,4,4.45,MZ,1726506964
194,barra de santo antonio,-9.4047,-35.5072,78.67,66,64,6.85,BR,1726506965
195,arar,30.9753,41.0381,89.62,20,0,6.91,SA,1726506966
196,alpena,45.0617,-83.4327,84.52,39,0,8.05,US,1726506967
197,san luis de la loma,17.2706,-100.8939,86.99,69,100,3.78,MX,1726506968
198,ribeira grande,38.5167,-28.7,75.78,78,75,20.71,PT,1726506969
199,guatire,10.4762,-66.5427,91.74,48,88,4.07,VE,1726506970
200,eastham,41.8301,-69.9739,73.11,71,0,6.91,US,1726506971
201,kirakira,-10.4544,161.9205,77.63,88,77,5.03,SB,1726506972
202,pasuquin,18.3328,120.6177,75.15,100,100,3.44,PH,1726506974
203,vorkuta,67.5,64.0,55.56,92,90,2.44,RU,1726506975
204,kot diji,27.3427,68.7083,91.53,47,0,13.56,PK,1726506976
205,santa marta de ortigueira,43.6833,-7.85,67.24,71,7,3.0,ES,1726506977
206,whitefish,48.4111,-114.3376,62.35,56,0,6.91,US,1726506978
207,filey,54.21,-0.2892,57.78,82,41,1.01,GB,1726506979
208,bodaybo,57.8506,114.1933,34.03,93,73,3.58,RU,1726506980
209,shaowu,27.3409,117.4831,77.56,94,99,1.97,CN,1726506981
210,port blair,11.6667,92.75,84.24,84,75,8.05,IN,1726506982
211,san borja,-14.8167,-66.85,93.81,21,46,6.02,BO,1726506983
212,price,39.5994,-110.8107,72.09,26,62,22.79,US,1726506984
213,hirara,24.8,125.2833,84.47,84,75,18.41,JP,1726506985
214,pacific grove,36.6177,-121.9166,60.48,92,100,11.99,US,1726506986
215,prienai,54.6333,23.95,68.29,50,9,8.77,LT,1726506987
216,sao joao da barra,-21.6403,-41.0511,87.89,78,10,21.34,BR,1726506988
217,prince rupert,54.3161,-130.3201,53.69,99,100,26.46,CA,1726506989
218,arraial do cabo,-22.9661,-42.0278,78.76,69,3,12.66,BR,1726506990
219,launceston,-41.45,147.1667,44.24,87,98,10.36,AU,1726506991
220,rio brilhante,-21.8019,-54.5464,83.93,35,22,8.55,BR,1726506992
221,kasempa,-13.4584,25.8338,79.14,20,0,5.93,ZM,1726506993
222,nantucket,41.2835,-70.0995,71.71,64,0,6.91,US,1726506994
223,guarapari,-20.6667,-40.4975,80.29,63,0,25.41,BR,1726506888
224,kainantu,-6.2887,145.8655,60.3,98,91,1.86,PG,1726506996
225,illizi,26.4833,8.4667,102.42,14,23,6.33,DZ,1726506997
226,nishinoomote,30.7333,131.0,82.96,76,10,13.29,JP,1726506998
227,nouadhibou,20.931,-17.0347,76.98,69,48,16.11,MR,1726506999
228,gorontalo,0.5412,123.0595,74.03,92,96,1.77,ID,1726507000
229,talnakh,69.4865,88.3972,40.06,97,100,3.11,RU,1726507001
230,chulakkurgan,43.765,69.1814,65.97,28,100,12.46,KZ,1726507002
231,nabire,-3.3667,135.4833,77.58,92,90,3.31,ID,1726507003
232,la rinconada,37.4873,-5.9826,93.38,31,0,11.5,ES,1726507004
233,vuktyl,63.8567,57.3094,60.62,86,76,6.44,RU,1726507006
234,kruisfontein,-34.0033,24.7314,53.29,74,35,4.0,ZA,1726507007
235,brandon,27.9378,-82.2859,87.98,79,75,3.44,US,1726506910
236,sitka,57.0531,-135.33,55.29,88,100,5.75,US,1726507009
237,zaozersk,69.4005,32.4476,50.29,90,100,9.91,RU,1726507010
238,bratsk,56.1325,101.6142,32.34,92,81,4.03,RU,1726507011
239,sittwe,20.15,92.9,81.37,84,64,7.25,MM,1726507013
240,cururupu,-1.8283,-44.8683,90.36,42,0,7.18,BR,1726507014
241,mossel bay,-34.1831,22.146,58.93,69,1,7.36,ZA,1726507015
242,lebu,-37.6167,-73.65,55.24,61,100,16.06,CL,1726507016
243,yeppoon,-23.1333,150.7333,66.31,64,89,12.66,AU,1726506740
244,badger,64.8,-147.5333,40.98,95,75,0.0,US,1726507018
245,la rioja,42.25,-2.5,62.38,50,91,7.09,ES,1726507020
246,chilecito,-29.1619,-67.4974,72.48,19,0,6.71,AR,1726507021
247,haripur,34.0,72.9341,75.81,57,0,6.44,PK,1726507022
248,portland,45.5234,-122.6762,62.92,81,40,4.61,US,1726507023
249,lau,9.2167,11.2833,82.17,80,46,4.63,NG,1726507024
250,poronaysk,49.2167,143.1167,54.68,79,94,8.97,RU,1726507016
251,imbituba,-28.24,-48.6703,61.54,82,100,6.33,BR,1726507026
252,floro,61.5996,5.0328,53.56,76,40,9.22,NO,1726507027
253,saint-philippe,-21.3585,55.7679,69.58,75,47,12.64,RE,1726507028
254,hluti,-27.2167,31.6167,68.5,84,100,7.2,SZ,1726507029
255,saint-joseph,-21.3667,55.6167,68.38,72,45,10.63,RE,1726507031
256,nenjiang,49.1833,125.2167,52.68,64,0,6.08,CN,1726507032
257,tolanaro,-25.0319,46.9987,73.47,68,0,6.91,MG,1726507033
258,zalegoshch',52.9008,36.8869,71.46,35,53,10.13,RU,1726507034
259,brest,52.1,23.7,67.23,44,100,9.24,BY,1726507035
260,zeya,53.75,127.2667,45.25,99,62,3.69,RU,1726507036
261,klyuchi,52.2667,79.1667,43.7,55,31,9.13,RU,1726507037
262,chichiriviche,10.9333,-68.2772,87.51,72,80,15.66,VE,1726507038
263,qujing,25.4833,103.7833,58.48,95,0,2.64,CN,1726507039
264,bogra,24.85,89.3667,80.4,87,100,6.33,BD,1726507040
265,petropavlovsk-kamchatsky,53.0452,158.6483,34.39,75,0,6.71,RU,1726507041
266,lorengau,-2.0226,147.2712,81.23,83,22,8.52,PG,1726507042
267,bandarbeyla,9.4942,50.8122,78.3,80,7,27.02,SO,1726507043
268,altai,46.3722,96.2583,48.67,20,0,23.96,MN,1726507044
269,kuqa,41.7278,82.9364,74.64,30,3,2.46,CN,1726507045
270,fairbanks,64.8378,-147.7164,41.09,94,75,0.0,US,1726507046
271,toliara,-23.35,43.6667,73.87,78,1,8.1,MG,1726507047
272,singerei,47.6667,28.1667,63.84,77,100,3.65,MD,1726507048
273,cestos city,5.46,-9.5828,79.12,79,73,9.89,LR,1726507049
274,san pedro,14.35,121.0167,81.63,95,20,1.99,PH,1726507050
275,ingeniero jacobacci,-41.3427,-69.5448,59.43,17,44,9.22,AR,1726507051
276,dibba al-hisn,25.6196,56.2729,87.35,59,0,2.35,AE,1726507052
277,malabar,-33.9667,151.25,54.05,77,12,18.5,AU,1726507053
278,valley city,46.9233,-98.0032,80.55,50,100,14.79,US,1726507054
279,chimala,-8.85,34.0167,74.12,23,3,4.68,TZ,1726507055
280,ulladulla,-35.35,150.4667,46.94,76,2,5.46,AU,1726507056
281,leava,-14.3,-178.1667,79.11,81,88,7.45,WF,1726507057
282,san antonio oeste,-40.7319,-64.9477,64.42,34,1,5.37,AR,1726506925
283,jiagedaqi,50.4167,124.1167,46.47,64,0,4.03,CN,1726507059
284,badr hunayn,23.7829,38.7905,88.59,55,4,3.53,SA,1726507060
285,labrador city,52.9463,-66.9114,67.17,66,75,13.8,CA,1726507062
286,i-n-salah,27.1935,2.4607,104.41,11,0,13.78,DZ,1726507063
287,susuman,62.7833,148.1667,28.2,82,46,1.95,RU,1726507064
288,birobidzhan,48.8,132.95,49.87,92,42,3.38,RU,1726507065
289,omutninsk,58.67,52.1932,58.24,76,72,1.97,RU,1726507066
290,saldanha,-33.0117,17.9442,55.45,77,0,21.09,ZA,1726507067
291,collinsville,38.6703,-89.9846,87.89,58,0,3.0,US,1726507068
292,novofedorivka,46.1713,32.3178,69.89,58,100,6.73,UA,1726507069
293,urangan,-25.3,152.9,60.26,81,0,10.25,AU,1726507070
294,holualoa,19.6228,-155.9522,76.84,85,100,8.05,US,1726507071
295,lesosibirsk,58.2358,92.4828,32.22,86,23,2.21,RU,1726507072
296,madison,34.7334,-86.5667,83.93,56,20,10.0,US,1726506926
297,weno,7.4515,151.8468,82.35,89,100,8.05,FM,1726507074
298,sanya,18.2431,109.505,80.76,89,0,4.47,CN,1726507075
299,rongelap,11.1635,166.8941,82.99,76,86,9.51,MH,1726507076
300,salekhard,66.53,66.6019,59.5,88,100,2.68,RU,1726507077
301,kenai,60.5544,-151.2583,52.14,83,0,21.85,US,1726507078
302,ola,59.5833,151.2833,40.87,63,95,8.1,RU,1726507079
303,new norfolk,-42.7826,147.0587,48.7,96,100,4.97,AU,1726507080
304,hinganghat,20.5667,78.8333,75.42,88,86,9.26,IN,1726507081
305,puerto san jose,13.9256,-90.8244,86.97,71,78,5.99,GT,1726507082
306,sarangani,5.4033,125.4636,82.83,80,100,18.79,PH,1726507083
307,yuzhno-kurilsk,44.0306,145.8556,60.04,79,100,12.53,RU,1726507084
308,emure-ekiti,7.4361,5.4593,76.69,90,78,4.05,NG,1726506842
309,kirensk,57.7853,108.1119,36.41,95,100,4.32,RU,1726507086
310,farim,12.4839,-15.2217,74.79,97,100,3.69,GW,1726507087
311,lingyuan,41.24,119.4011,63.21,73,98,2.35,CN,1726507088
312,lubao,14.9167,120.55,80.31,99,100,9.01,PH,1726507089
313,douz,33.4663,9.0203,86.68,23,14,5.12,TN,1726507091
314,nuku'alofa,-21.1333,-175.2,70.14,100,40,1.14,TO,1726506838
315,savanna-la-mar,18.219,-78.1332,89.92,60,100,6.17,JM,1726507096
316,paita,-5.0892,-81.1144,70.68,69,4,12.91,PE,1726506976
317,pasni,25.2631,63.471,80.37,84,1,11.77,PK,1726507098
318,kalianget,-7.05,113.9333,79.84,70,100,5.73,ID,1726507099
319,big spring,32.2504,-101.4787,84.24,47,0,4.61,US,1726507100
320,mount pearl,47.5166,-52.7813,70.45,59,75,25.32,CA,1726506889
321,jimenez,28.3333,-105.4,83.25,47,0,5.32,MX,1726507103
322,east london,-33.0153,27.9116,63.54,77,75,5.75,ZA,1726506921
323,kayes,14.0,-11.0,77.95,87,100,4.03,ML,1726507105
324,anadyr,64.75,177.4833,39.7,93,40,6.71,RU,1726506900
325,fort bragg,35.139,-79.006,67.84,94,100,18.41,US,1726507107
326,richards bay,-28.783,32.0377,69.3,95,98,3.4,ZA,1726507108
327,yeniseysk,58.4497,92.1703,32.7,83,52,2.33,RU,1726506881
328,copiapo,-27.3667,-70.3333,76.91,27,0,10.87,CL,1726507013
329,ust'-ilimsk,58.0006,102.6619,33.37,99,99,2.57,RU,1726507045
330,ascension,30.2169,-90.9001,88.0,62,75,0.0,US,1726507112
331,taoudenni,22.6783,-3.9836,109.18,9,58,4.03,ML,1726507114
332,kontagora,10.3999,5.4695,80.17,83,73,3.04,NG,1726507115
333,kyren,51.6828,102.1408,41.49,87,100,2.48,RU,1726507117
334,recreo,-29.2818,-65.061,83.03,16,0,22.28,AR,1726507118
335,santa terezinha,-29.9002,-50.0904,63.64,72,0,7.49,BR,1726507119
336,horta,38.5333,-28.6333,75.02,86,75,21.0,PT,1726507120
337,smithers,54.7804,-127.1743,52.12,87,75,4.61,CA,1726507121
338,fukuecho,32.6881,128.8419,82.58,83,67,6.31,JP,1726507122
339,bintulu,3.1667,113.0333,81.01,89,20,2.3,MY,1726507123
340,blenheim,-41.516,173.9528,38.52,96,99,5.44,NZ,1726507124
341,las khorey,11.1595,48.1967,90.28,62,17,5.17,SO,1726507125
342,val-d'or,48.1002,-77.7828,80.69,47,20,14.97,CA,1726507126
343,greymouth,-42.4667,171.2,43.97,74,100,11.25,NZ,1726507127
344,alice springs,-23.7,133.8833,58.55,17,68,11.5,AU,1726507128
345,kharkhorin,47.1975,102.8238,47.98,29,0,6.78,MN,1726507129
346,motueka,-41.1333,173.0167,43.11,87,73,3.87,NZ,1726507130
347,baxter,46.3433,-94.2867,84.06,57,0,11.5,US,1726506974
348,bereket,39.2446,55.5154,68.04,25,0,2.8,TM,1726507132
349,piacabucu,-10.4056,-36.4344,81.09,57,1,10.78,BR,1726507134
350,acheng,45.5454,126.977,53.13,90,0,5.66,CN,1726507135
351,eyl,7.9803,49.8164,79.5,77,9,22.19,SO,1726507057
352,san antonio de pale,-1.4014,5.6325,76.41,82,82,13.8,GQ,1726507092
353,labytnangi,66.6572,66.4183,59.77,88,100,3.83,RU,1726507138
354,bajina basta,43.9708,19.5675,52.59,88,100,2.39,RS,1726507139
355,kos,36.8933,27.2889,72.84,58,0,8.34,GR,1726507140
356,nova vicosa,-17.8919,-39.3719,80.92,61,34,14.61,BR,1726507141
357,vila franca do campo,37.7167,-25.4333,75.61,63,29,7.34,PT,1726507142
358,aitape,-3.1374,142.3475,78.26,91,74,6.82,PG,1726507145
359,tabas,33.5959,56.9244,83.91,20,3,8.25,IR,1726507146
360,stalpeni,45.05,24.9667,51.93,71,48,3.89,RO,1726507147
361,indramayu,-6.3264,108.32,80.19,51,100,9.4,ID,1726507109
362,antsiranana,-12.2787,49.2917,73.56,76,4,19.35,MG,1726507149
363,chinchilla,-26.75,150.6333,43.02,67,16,7.09,AU,1726507150
364,philadelphia,39.9523,-75.1638,75.09,67,75,9.22,US,1726506962
365,at taj,24.2049,23.2857,93.02,26,0,12.93,LY,1726507152
366,malango,-2.9627,119.9001,67.48,97,79,0.72,ID,1726507153
367,mazyr,52.0495,29.2456,69.42,35,3,8.97,BY,1726507154
368,orsha,54.5153,30.4053,65.17,41,6,9.1,BY,1726507155
369,amahai,-3.3333,128.9167,77.54,90,97,2.01,ID,1726507156
370,pinheiro machado,-31.5783,-53.3811,65.08,49,1,4.97,BR,1726507157
371,katsuura,35.1333,140.3,74.62,91,79,9.62,JP,1726507158
372,umluj,25.0213,37.2685,86.14,71,0,8.1,SA,1726507159
373,kapuskasing,49.4169,-82.4331,84.2,54,75,17.27,CA,1726507160
374,raigarh,21.9,83.4,73.99,93,100,7.7,IN,1726506914
375,xilin hot,43.9667,116.0333,52.34,64,43,1.72,CN,1726507162
376,severo-yeniseyskiy,60.3725,93.0408,30.27,81,95,3.2,RU,1726507163
377,st. john's,47.5649,-52.7093,71.28,58,75,25.32,CA,1726507132
378,crane,31.3974,-102.3501,83.43,41,0,15.68,US,1726507166
379,saint george's,12.0564,-61.7485,84.72,76,56,9.73,GD,1726507167
380,farsan,32.2569,50.561,62.64,34,0,6.44,IR,1726507169
381,alotau,-10.3069,150.4462,74.62,98,100,3.91,PG,1726507171
382,tyukhtet,56.5389,89.3011,32.02,92,55,3.11,RU,1726507172
383,urumqi,43.801,87.6005,59.95,45,0,4.47,CN,1726507173
384,lagunas,-5.2269,-75.6753,102.11,29,36,2.26,PE,1726507174
385,pandan,14.0453,124.1694,78.46,91,100,8.08,PH,1726507175
386,whitehorse,60.7161,-135.0538,50.77,71,75,9.22,CA,1726507176
387,nizhniy ingash,56.2,96.53,31.66,86,56,2.3,RU,1726507177
388,padang,-0.9492,100.3543,77.05,86,100,2.95,ID,1726507179
389,marquette,46.5333,-87.6335,82.76,59,43,3.0,US,1726507180
390,san andres,12.5847,-81.7006,89.62,74,20,10.36,CO,1726507182
391,axim,4.8699,-2.2405,78.28,79,78,8.37,GH,1726507183
392,fortuna,40.5982,-124.1573,61.36,89,100,1.01,US,1726507184
393,zaragoza,41.6561,-0.8773,75.02,29,0,26.46,ES,1726507056
394,cutral-co,-38.9469,-69.2089,63.91,10,100,12.59,AR,1726507186
395,mabai,23.0128,104.4508,61.66,95,2,5.28,CN,1726507187
396,ugoofaaru,5.6667,73.0,82.45,79,34,14.23,MV,1726507188
397,brisas de zicatela,15.8369,-97.0419,86.47,71,74,6.26,MX,1726507189
398,hermanus,-34.4187,19.2345,55.8,73,0,12.68,ZA,1726507191
399,katsuren-haebaru,26.3369,127.8719,84.22,84,40,18.41,JP,1726507192
400,pedernales,18.0384,-71.744,90.55,60,31,6.13,DO,1726507193
401,okha,53.5739,142.9478,52.41,84,100,6.31,RU,1726507195
402,akureyri,65.6835,-18.0878,48.13,53,0,11.5,IS,1726507196
403,cockburn town,21.4612,-71.1419,87.76,79,40,13.8,TC,1726507197
404,sinop,41.7711,34.8709,60.73,93,99,2.66,TR,1726507198
405,oriximina,-1.7656,-55.8661,101.35,27,3,9.62,BR,1726507199
406,rice lake,45.5061,-91.7382,83.88,53,40,8.05,US,1726507200
407,amga,60.8953,131.9608,28.83,86,1,2.48,RU,1726507201
408,lazaro cardenas,17.9583,-102.2,85.46,76,70,2.01,MX,1726507202
409,thinadhoo,0.5333,72.9333,83.98,75,68,10.67,MV,1726507204
410,ust'-ordynskiy,52.805,104.7508,41.07,72,83,6.42,RU,1726507205
411,bom jesus,-9.0744,-44.3586,104.58,15,2,3.85,BR,1726507206
412,illintsi,49.1048,29.2177,68.77,30,100,7.43,UA,1726507207
413,mulayjah,27.271,48.4242,91.04,22,0,9.66,SA,1726507208
414,puerto carreno,6.189,-67.4859,94.46,50,47,0.96,CO,1726507209
415,whangarei,-35.7317,174.3239,49.89,73,36,7.9,NZ,1726507006
416,mbuji-mayi,-6.15,23.6,89.96,19,18,3.29,CD,1726507211
417,durbuy,50.35,5.4667,59.09,84,85,8.03,BE,1726507212
418,usogorsk,63.4106,48.6872,60.28,66,98,5.59,RU,1726507213
419,surazh,53.0175,32.3918,67.66,40,2,9.24,RU,1726507214
420,belmonte,-15.8631,-38.8828,80.44,61,7,8.7,BR,1726507215
421,namibe,-15.1961,12.1522,65.26,83,63,5.37,AO,1726507216
422,villa gesell,-37.2639,-56.973,65.28,42,0,10.56,AR,1726507217
423,ouadda,8.0777,22.4007,70.29,94,96,2.68,CF,1726507218
424,georgetown,5.4112,100.3354,78.73,87,20,4.61,MY,1726507219
425,alesund,62.4723,6.1549,57.76,83,75,10.36,NO,1726507220
426,ginir,7.1333,40.7,68.4,53,63,5.44,ET,1726507221
427,kitimat,54.0524,-128.6534,53.91,25,100,7.0,CA,1726507222
428,bayanhongor,46.7167,100.1167,36.84,28,0,2.19,MN,1726507223
429,mishelevka,52.8575,103.1719,36.73,98,100,5.97,RU,1726507225
430,las veredas,23.1388,-109.7075,89.15,62,0,2.3,MX,1726507226
431,beeville,28.4008,-97.7483,90.63,48,50,4.61,US,1726507227
432,kolpashevo,58.3131,82.9089,37.83,80,27,1.99,RU,1726507229
433,haiku-pauwela,20.9219,-156.3051,78.21,88,40,25.99,US,1726507230
434,margherita di savoia,41.3742,16.1502,69.28,48,92,0.6,IT,1726507214
435,sorong,-0.8833,131.25,79.39,90,99,9.73,ID,1726507232
436,boali,4.8005,18.1275,76.77,81,96,4.54,CF,1726507233
437,bac lieu,9.285,105.7244,79.57,83,100,16.98,VN,1726507234
438,rio gallegos,-51.6226,-69.2181,57.25,35,0,21.85,AR,1726507105
439,ciudad lazaro cardenas,17.9583,-102.2,85.46,76,70,2.01,MX,1726507236
440,moldova noua,44.7375,21.6669,53.02,90,83,2.82,RO,1726507237
441,hadibu,12.65,54.0333,78.26,75,10,13.47,YE,1726507238
442,corfu,39.62,19.9197,69.58,60,75,0.0,GR,1726507242
443,palikir - national government center,6.9248,158.1611,82.18,70,92,6.08,FM,1726507243
444,kavieng,-2.5744,150.7967,82.09,80,81,9.86,PG,1726507244
445,mahdia,35.5047,11.0622,76.32,54,13,16.2,TN,1726507245
446,san fernando,15.0286,120.6898,80.33,99,100,5.64,PH,1726507246
447,guasdualito,7.2424,-70.7324,91.4,66,61,4.61,VE,1726507247
448,salinopolis,-0.6136,-47.3561,84.34,69,0,16.8,BR,1726507248
449,cambria,35.5641,-121.0808,65.25,85,12,4.0,US,1726507249
450,mannarakkat,10.9833,76.4667,74.73,98,66,2.82,IN,1726507250
451,gereshk,31.8209,64.5701,82.42,19,14,10.49,AF,1726507251
452,camacupa,-12.0167,17.4833,82.8,18,42,4.29,AO,1726507252
453,linxia chengguanzhen,35.6003,103.2064,60.71,79,100,2.53,CN,1726507253
454,plouzane,48.3833,-4.6167,64.89,76,75,10.36,FR,1726507254
455,hoemul-li,41.4339,129.67,65.05,81,56,1.14,KP,1726507215
456,baiti,13.745,-14.7482,76.8,93,100,7.96,SN,1726507256
457,naze,28.3667,129.4833,77.92,86,22,16.2,JP,1726507257
458,llallagua,-18.4167,-66.6333,58.05,17,4,14.03,BO,1726507258
459,tavda,58.0425,65.2726,44.76,64,57,3.8,RU,1726507259
460,west bay,19.3667,-81.4167,91.47,66,40,12.66,KY,1726507215
461,suntar,62.1444,117.6319,30.29,94,38,4.27,RU,1726507261
462,pamekasan,-7.1568,113.4746,79.03,73,92,5.41,ID,1726507262
463,polyarnyy,69.1989,33.4478,51.35,91,98,10.89,RU,1726507263
464,necochea,-38.5473,-58.7368,61.74,43,4,10.87,AR,1726507264
465,midvagur,62.0511,-7.1939,50.83,100,100,17.27,FO,1726507265
466,khandyga,62.6667,135.6,31.14,93,9,1.23,RU,1726507266
467,bad kosen,51.1333,11.7167,58.05,66,100,11.1,DE,1726507267
468,bamboo flat,11.7,92.7167,84.29,84,75,8.05,IN,1726507268
469,heyuan,23.7333,114.6833,79.86,91,98,0.98,CN,1726507269
470,mount isa,-20.7333,139.5,73.17,25,76,11.5,AU,1726507270
471,bairnsdale,-37.8333,147.6167,48.06,88,69,7.07,AU,1726507272
472,burang,30.25,81.1667,44.42,79,63,4.54,CN,1726507273
473,tayoltita,24.0833,-105.9333,88.23,40,6,3.74,MX,1726507274
474,kristiansund,63.1115,7.732,54.25,76,75,14.97,NO,1726507275
475,yaren,-0.5472,166.916,82.36,69,100,5.68,NR,1726507276
476,le pouliguen,47.2697,-2.4278,67.95,75,77,16.4,FR,1726507277
477,la passe,45.5549,-0.8967,71.04,39,74,12.66,FR,1726507278
478,stribro,49.7529,13.0041,59.25,97,100,9.78,CZ,1726507279
479,kone,-21.0595,164.8658,66.07,66,97,8.48,NC,1726507280
480,bubaque,11.2833,-15.8333,78.28,86,100,17.63,GW,1726507281
481,tortoli,39.9256,9.6572,73.22,69,20,3.44,IT,1726507282
482,shingu,33.7333,135.9833,76.66,92,35,3.42,JP,1726507283
483,chibougamau,49.9168,-74.3659,78.42,57,0,10.36,CA,1726507284
484,tralee,52.2704,-9.7026,68.25,73,100,5.75,IE,1726507285
485,benavente,42.0025,-5.6783,76.66,16,41,5.01,ES,1726507286
486,terrace,54.5163,-128.6035,52.52,98,99,2.42,CA,1726507287
487,boksitogorsk,59.474,33.8485,64.13,57,16,2.15,RU,1726507249
488,ramhormoz,31.28,49.6035,93.76,14,0,3.09,IR,1726507289
489,tromso,69.6496,18.957,53.62,76,40,5.75,NO,1726507148
490,sechura,-5.5569,-80.8222,76.08,56,12,10.65,PE,1726507291
491,cidreira,-30.1811,-50.2056,64.29,70,0,6.55,BR,1726507146
492,tunduma,-9.3,32.7667,67.39,23,1,5.41,TZ,1726507293
493,mont-dore,-22.2833,166.5833,65.34,60,69,10.83,NC,1726507294
494,xai-xai,-25.0519,33.6442,73.74,90,30,9.75,MZ,1726507295
495,gore,-46.1028,168.9436,34.34,98,70,8.16,NZ,1726507296
496,aur,8.1499,171.1687,82.69,75,8,9.31,MH,1726507297
497,buzdyak,54.5833,54.55,56.91,78,60,7.96,RU,1726507298
498,coaldale,49.7167,-112.6185,61.79,72,20,4.61,CA,1726507299
499,mweka,-4.85,21.5667,84.83,40,77,3.42,CD,1726507255
500,harper,4.375,-7.7169,77.99,80,89,8.41,LR,1726507302
501,zemio,5.0314,25.1361,72.68,93,82,3.76,CF,1726507303
502,kodinsk,58.6881,99.1844,29.79,94,48,2.04,RU,1726507304
503,nuuk,64.1835,-51.7216,39.85,83,71,4.34,GL,1726507305
504,muravlenko,63.7898,74.523,51.51,85,26,13.44,RU,1726507306
505,fale old settlement,-9.3852,-171.2468,81.16,77,67,7.16,TK,1726507308
506,kachug,53.9606,105.8817,36.25,68,99,3.29,RU,1726507309
507,visakhapatnam,17.69,83.2093,87.69,58,75,9.22,IN,1726507310
508,pundong,-7.9522,110.3486,73.49,85,33,0.45,ID,1726507311
509,jianshui,23.6363,102.8264,65.46,95,26,5.48,CN,1726507312
510,paracale,14.2804,122.7881,76.86,92,100,4.99,PH,1726507313
511,albina,5.5,-54.05,100.04,29,9,3.09,SR,1726507314
512,pacasmayo,-7.4006,-79.5714,68.38,69,2,15.79,PE,1726507315
513,kaihua,23.3687,104.28,62.94,95,4,4.59,CN,1726507316
514,mana,5.6592,-53.7767,87.6,64,9,12.93,GF,1726507317
515,palmeira das missoes,-27.8994,-53.3136,68.36,59,13,8.46,BR,1726507318
516,gao,16.6362,1.637,97.3,32,39,10.76,ML,1726507319
517,port-vila,-17.7338,168.3219,71.2,94,100,6.91,VU,1726507320
518,lethbridge,49.7,-112.8186,61.29,72,20,4.61,CA,1726507119
519,sur,22.5667,59.5289,86.68,59,8,12.68,OM,1726507322
520,statesville,35.7826,-80.8873,63.82,93,100,6.91,US,1726507323
521,porto novo,6.4965,2.6036,80.6,72,68,10.16,BJ,1726507324
522,soio,-6.1349,12.3689,74.8,83,26,9.89,AO,1726507325
523,ambovombe,-25.1667,46.0833,70.72,83,9,6.85,MG,1726507326
524,yulinshi,38.2906,109.7494,70.92,74,4,7.34,CN,1726507327
525,gardnerville ranchos,38.8882,-119.7413,58.48,38,75,13.0,US,1726507328
526,juli,-16.2167,-69.45,52.97,56,50,9.24,PE,1726507329
527,tari,-11.1105,14.3559,68.58,75,58,5.03,AO,1726507330
528,lappeenranta,61.0587,28.1887,57.25,94,0,2.3,FI,1726507332
529,ingeniero guillermo n. juarez,-23.9,-61.85,87.35,16,0,6.04,AR,1726507333
530,toledo,39.8333,-4.0,86.32,10,66,12.08,ES,1726507334
531,helena valley west central,46.6629,-112.0604,66.15,55,100,1.99,US,1726507335
532,ratnagiri,16.9833,73.3,78.89,81,59,4.76,IN,1726507336
533,cachoeira,-12.6183,-38.9558,85.77,38,0,10.11,BR,1726507337
534,la jolla,32.8473,-117.2742,71.87,70,75,10.36,US,1726507338
535,tanjung selor,2.8372,117.3642,77.07,82,96,3.09,ID,1726507339
536,alenquer,-1.9417,-54.7383,100.89,29,2,6.87,BR,1726507340
537,south upi,6.8333,124.15,72.5,91,98,7.36,PH,1726507341
538,grand falls-windsor,48.9332,-55.6649,75.79,48,70,16.78,CA,1726507116
539,alvaraes,-3.2208,-64.8042,82.27,27,0,3.38,BR,1726507344
540,gebeit,21.0667,36.3167,89.53,42,63,10.8,SD,1726507345
541,manokwari,-0.8667,134.0833,80.17,83,100,2.91,ID,1726507347
542,rosarito,32.3333,-117.0333,68.97,67,100,7.25,MX,1726507348
543,san patricio,28.017,-97.5169,80.55,59,71,7.94,US,1726507349
544,piensk,51.249,15.0469,64.98,92,100,6.93,PL,1726507351
545,selfoss,63.9331,-20.9971,49.05,80,100,25.28,IS,1726507352
546,alibag,18.6411,72.8792,79.83,75,41,1.48,IN,1726507354
547,port pirie,-33.1833,138.0167,41.85,77,0,4.36,AU,1726507355
548,palu,-0.8917,119.8707,74.95,95,77,3.76,ID,1726507356
549,inarajan village,13.2736,144.7484,79.77,93,100,19.37,GU,1726507357
550,westport,41.1415,-73.3579,76.06,65,0,9.22,US,1726507182
551,mitu,1.1983,-70.1733,99.19,34,14,1.99,CO,1726507359
552,new shagunnu,10.3396,4.4688,84.04,79,53,2.3,NG,1726507360
553,pontian kechil,1.4866,103.3896,80.26,84,100,4.09,MY,1726507361
554,patan,27.6667,85.3333,71.98,94,75,3.44,NP,1726507362
